$GPGGA,102231.098,5133.467,N,03924.604,E,1,12,1.0,0.0,M,0.0,M,,*63
$GPGSA,A,3,01,02,03,04,05,06,07,08,09,10,11,12,1.0,1.0,1.0*30
$GPRMC,102231.098,A,5133.467,N,03924.604,E,038.9,078.9,130824,000.0,W*7F
$GPGGA,102232.098,5133.469,N,03924.621,E,1,12,1.0,0.0,M,0.0,M,,*69
$GPGSA,A,3,01,02,03,04,05,06,07,08,09,10,11,12,1.0,1.0,1.0*30
$GPRMC,102232.098,A,5133.469,N,03924.621,E,038.9,078.9,130824,000.0,W*75
$GPGGA,102233.098,5133.471,N,03924.638,E,1,12,1.0,0.0,M,0.0,M,,*69
$GPGSA,A,3,01,02,03,04,05,06,07,08,09,10,11,12,1.0,1.0,1.0*30
$GPRMC,102233.098,A,5133.471,N,03924.638,E,038.9,078.9,130824,000.0,W*75
$GPGGA,102234.098,5133.473,N,03924.655,E,1,12,1.0,0.0,M,0.0,M,,*67
$GPGSA,A,3,01,02,03,04,05,06,07,08,09,10,11,12,1.0,1.0,1.0*30
$GPRMC,102234.098,A,5133.473,N,03924.655,E,038.9,078.9,130824,000.0,W*7B
$GPGGA,102235.098,5133.475,N,03924.672,E,1,12,1.0,0.0,M,0.0,M,,*65
$GPGSA,A,3,01,02,03,04,05,06,07,08,09,10,11,12,1.0,1.0,1.0*30
$GPRMC,102235.098,A,5133.475,N,03924.672,E,038.9,054.8,130824,000.0,W*76
$GPGGA,102236.098,5133.482,N,03924.686,E,1,12,1.0,0.0,M,0.0,M,,*65
$GPGSA,A,3,01,02,03,04,05,06,07,08,09,10,11,12,1.0,1.0,1.0*30
$GPRMC,102236.098,A,5133.482,N,03924.686,E,038.9,054.8,130824,000.0,W*76
$GPGGA,102237.098,5133.488,N,03924.700,E,1,12,1.0,0.0,M,0.0,M,,*61
$GPGSA,A,3,01,02,03,04,05,06,07,08,09,10,11,12,1.0,1.0,1.0*30
$GPRMC,102237.098,A,5133.488,N,03924.700,E,038.9,054.8,130824,000.0,W*72
$GPGGA,102238.098,5133.494,N,03924.714,E,1,12,1.0,0.0,M,0.0,M,,*66
$GPGSA,A,3,01,02,03,04,05,06,07,08,09,10,11,12,1.0,1.0,1.0*30
$GPRMC,102238.098,A,5133.494,N,03924.714,E,038.9,054.8,130824,000.0,W*75
$GPGGA,102239.098,5133.500,N,03924.729,E,1,12,1.0,0.0,M,0.0,M,,*65
$GPGSA,A,3,01,02,03,04,05,06,07,08,09,10,11,12,1.0,1.0,1.0*30
$GPRMC,102239.098,A,5133.500,N,03924.729,E,038.9,054.8,130824,000.0,W*76
$GPGGA,102240.098,5133.506,N,03924.743,E,1,12,1.0,0.0,M,0.0,M,,*61
$GPGSA,A,3,01,02,03,04,05,06,07,08,09,10,11,12,1.0,1.0,1.0*30
$GPRMC,102240.098,A,5133.506,N,03924.743,E,038.9,019.9,130824,000.0,W*7A
$GPGGA,102241.098,5133.517,N,03924.749,E,1,12,1.0,0.0,M,0.0,M,,*6A
$GPGSA,A,3,01,02,03,04,05,06,07,08,09,10,11,12,1.0,1.0,1.0*30
$GPRMC,102241.098,A,5133.517,N,03924.749,E,038.9,353.4,130824,000.0,W*71
$GPGGA,102242.098,5133.527,N,03924.747,E,1,12,1.0,0.0,M,0.0,M,,*64
$GPGSA,A,3,01,02,03,04,05,06,07,08,09,10,11,12,1.0,1.0,1.0*30
$GPRMC,102242.098,A,5133.527,N,03924.747,E,038.9,353.4,130824,000.0,W*7F
$GPGGA,102243.098,5133.538,N,03924.745,E,1,12,1.0,0.0,M,0.0,M,,*69
$GPGSA,A,3,01,02,03,04,05,06,07,08,09,10,11,12,1.0,1.0,1.0*30
$GPRMC,102243.098,A,5133.538,N,03924.745,E,038.9,340.7,130824,000.0,W*73
$GPGGA,102244.098,5133.548,N,03924.739,E,1,12,1.0,0.0,M,0.0,M,,*62
$GPGSA,A,3,01,02,03,04,05,06,07,08,09,10,11,12,1.0,1.0,1.0*30
$GPRMC,102244.098,A,5133.548,N,03924.739,E,038.9,340.7,130824,000.0,W*78
$GPGGA,102245.098,5133.558,N,03924.733,E,1,12,1.0,0.0,M,0.0,M,,*68
$GPGSA,A,3,01,02,03,04,05,06,07,08,09,10,11,12,1.0,1.0,1.0*30
$GPRMC,102245.098,A,5133.558,N,03924.733,E,038.9,340.7,130824,000.0,W*72
$GPGGA,102246.098,5133.569,N,03924.728,E,1,12,1.0,0.0,M,0.0,M,,*63
$GPGSA,A,3,01,02,03,04,05,06,07,08,09,10,11,12,1.0,1.0,1.0*30
$GPRMC,102246.098,A,5133.569,N,03924.728,E,038.9,304.7,130824,000.0,W*79
$GPGGA,102247.098,5133.575,N,03924.713,E,1,12,1.0,0.0,M,0.0,M,,*67
$GPGSA,A,3,01,02,03,04,05,06,07,08,09,10,11,12,1.0,1.0,1.0*30
$GPRMC,102247.098,A,5133.575,N,03924.713,E,038.9,304.7,130824,000.0,W*7D
$GPGGA,102248.098,5133.581,N,03924.699,E,1,12,1.0,0.0,M,0.0,M,,*60
$GPGSA,A,3,01,02,03,04,05,06,07,08,09,10,11,12,1.0,1.0,1.0*30
$GPRMC,102248.098,A,5133.581,N,03924.699,E,038.9,304.7,130824,000.0,W*7A
$GPGGA,102249.098,5133.587,N,03924.685,E,1,12,1.0,0.0,M,0.0,M,,*6A
$GPGSA,A,3,01,02,03,04,05,06,07,08,09,10,11,12,1.0,1.0,1.0*30
$GPRMC,102249.098,A,5133.587,N,03924.685,E,038.9,276.3,130824,000.0,W*70
$GPGGA,102250.098,5133.588,N,03924.667,E,1,12,1.0,0.0,M,0.0,M,,*61
$GPGSA,A,3,01,02,03,04,05,06,07,08,09,10,11,12,1.0,1.0,1.0*30
$GPRMC,102250.098,A,5133.588,N,03924.667,E,038.9,276.3,130824,000.0,W*7B
$GPGGA,102251.098,5133.589,N,03924.650,E,1,12,1.0,0.0,M,0.0,M,,*65
$GPGSA,A,3,01,02,03,04,05,06,07,08,09,10,11,12,1.0,1.0,1.0*30
$GPRMC,102251.098,A,5133.589,N,03924.650,E,038.9,265.1,130824,000.0,W*7F
$GPGGA,102252.098,5133.588,N,03924.633,E,1,12,1.0,0.0,M,0.0,M,,*62
$GPGSA,A,3,01,02,03,04,05,06,07,08,09,10,11,12,1.0,1.0,1.0*30
$GPRMC,102252.098,A,5133.588,N,03924.633,E,038.9,265.1,130824,000.0,W*78
$GPGGA,102253.098,5133.587,N,03924.616,E,1,12,1.0,0.0,M,0.0,M,,*6B
$GPGSA,A,3,01,02,03,04,05,06,07,08,09,10,11,12,1.0,1.0,1.0*30
$GPRMC,102253.098,A,5133.587,N,03924.616,E,038.9,265.1,130824,000.0,W*71
$GPGGA,102254.098,5133.587,N,03924.598,E,1,12,1.0,0.0,M,0.0,M,,*69
$GPGSA,A,3,01,02,03,04,05,06,07,08,09,10,11,12,1.0,1.0,1.0*30
$GPRMC,102254.098,A,5133.587,N,03924.598,E,038.9,251.4,130824,000.0,W*71
$GPGGA,102255.098,5133.583,N,03924.582,E,1,12,1.0,0.0,M,0.0,M,,*67
$GPGSA,A,3,01,02,03,04,05,06,07,08,09,10,11,12,1.0,1.0,1.0*30
$GPRMC,102255.098,A,5133.583,N,03924.582,E,038.9,251.4,130824,000.0,W*7F
$GPGGA,102256.098,5133.580,N,03924.565,E,1,12,1.0,0.0,M,0.0,M,,*6E
$GPGSA,A,3,01,02,03,04,05,06,07,08,09,10,11,12,1.0,1.0,1.0*30
$GPRMC,102256.098,A,5133.580,N,03924.565,E,038.9,251.4,130824,000.0,W*76
$GPGGA,102257.098,5133.576,N,03924.549,E,1,12,1.0,0.0,M,0.0,M,,*68
$GPGSA,A,3,01,02,03,04,05,06,07,08,09,10,11,12,1.0,1.0,1.0*30
$GPRMC,102257.098,A,5133.576,N,03924.549,E,038.9,222.1,130824,000.0,W*71
$GPGGA,102258.098,5133.568,N,03924.537,E,1,12,1.0,0.0,M,0.0,M,,*61
$GPGSA,A,3,01,02,03,04,05,06,07,08,09,10,11,12,1.0,1.0,1.0*30
$GPRMC,102258.098,A,5133.568,N,03924.537,E,038.9,222.1,130824,000.0,W*78
$GPGGA,102259.098,5133.560,N,03924.526,E,1,12,1.0,0.0,M,0.0,M,,*68
$GPGSA,A,3,01,02,03,04,05,06,07,08,09,10,11,12,1.0,1.0,1.0*30
$GPRMC,102259.098,A,5133.560,N,03924.526,E,038.9,222.1,130824,000.0,W*71
$GPGGA,102300.098,5133.552,N,03924.514,E,1,12,1.0,0.0,M,0.0,M,,*65
$GPGSA,A,3,01,02,03,04,05,06,07,08,09,10,11,12,1.0,1.0,1.0*30
$GPRMC,102300.098,A,5133.552,N,03924.514,E,038.9,222.1,130824,000.0,W*7C
$GPGGA,102301.098,5133.544,N,03924.502,E,1,12,1.0,0.0,M,0.0,M,,*64
$GPGSA,A,3,01,02,03,04,05,06,07,08,09,10,11,12,1.0,1.0,1.0*30
$GPRMC,102301.098,A,5133.544,N,03924.502,E,038.9,192.0,130824,000.0,W*74
$GPGGA,102302.098,5133.534,N,03924.499,E,1,12,1.0,0.0,M,0.0,M,,*63
$GPGSA,A,3,01,02,03,04,05,06,07,08,09,10,11,12,1.0,1.0,1.0*30
$GPRMC,102302.098,A,5133.534,N,03924.499,E,038.9,192.0,130824,000.0,W*73
$GPGGA,102303.098,5133.523,N,03924.495,E,1,12,1.0,0.0,M,0.0,M,,*68
$GPGSA,A,3,01,02,03,04,05,06,07,08,09,10,11,12,1.0,1.0,1.0*30
$GPRMC,102303.098,A,5133.523,N,03924.495,E,038.9,192.0,130824,000.0,W*78
$GPGGA,102304.098,5133.513,N,03924.492,E,1,12,1.0,0.0,M,0.0,M,,*6B
$GPGSA,A,3,01,02,03,04,05,06,07,08,09,10,11,12,1.0,1.0,1.0*30
$GPRMC,102304.098,A,5133.513,N,03924.492,E,038.9,157.6,130824,000.0,W*74
$GPGGA,102305.098,5133.503,N,03924.498,E,1,12,1.0,0.0,M,0.0,M,,*61
$GPGSA,A,3,01,02,03,04,05,06,07,08,09,10,11,12,1.0,1.0,1.0*30
$GPRMC,102305.098,A,5133.503,N,03924.498,E,038.9,157.6,130824,000.0,W*7E
$GPGGA,102306.098,5133.493,N,03924.505,E,1,12,1.0,0.0,M,0.0,M,,*6F
$GPGSA,A,3,01,02,03,04,05,06,07,08,09,10,11,12,1.0,1.0,1.0*30
$GPRMC,102306.098,A,5133.493,N,03924.505,E,038.9,157.6,130824,000.0,W*70
$GPGGA,102307.098,5133.483,N,03924.511,E,1,12,1.0,0.0,M,0.0,M,,*6A
$GPGSA,A,3,01,02,03,04,05,06,07,08,09,10,11,12,1.0,1.0,1.0*30
$GPRMC,102307.098,A,5133.483,N,03924.511,E,038.9,157.6,130824,000.0,W*75
$GPGGA,102308.098,5133.473,N,03924.518,E,1,12,1.0,0.0,M,0.0,M,,*63
$GPGSA,A,3,01,02,03,04,05,06,07,08,09,10,11,12,1.0,1.0,1.0*30
$GPRMC,102308.098,A,5133.473,N,03924.518,E,038.9,157.6,130824,000.0,W*7C
$GPGGA,102309.098,5133.463,N,03924.525,E,1,12,1.0,0.0,M,0.0,M,,*6D
$GPGSA,A,3,01,02,03,04,05,06,07,08,09,10,11,12,1.0,1.0,1.0*30
$GPRMC,102309.098,A,5133.463,N,03924.525,E,038.9,106.3,130824,000.0,W*73
$GPGGA,102310.098,5133.460,N,03924.541,E,1,12,1.0,0.0,M,0.0,M,,*64
$GPGSA,A,3,01,02,03,04,05,06,07,08,09,10,11,12,1.0,1.0,1.0*30
$GPRMC,102310.098,A,5133.460,N,03924.541,E,038.9,106.3,130824,000.0,W*7A
$GPGGA,102311.098,5133.457,N,03924.558,E,1,12,1.0,0.0,M,0.0,M,,*69
$GPGSA,A,3,01,02,03,04,05,06,07,08,09,10,11,12,1.0,1.0,1.0*30
$GPRMC,102311.098,A,5133.457,N,03924.558,E,038.9,073.5,130824,000.0,W*72
$GPGGA,102312.098,5133.460,N,03924.575,E,1,12,1.0,0.0,M,0.0,M,,*61
$GPGSA,A,3,01,02,03,04,05,06,07,08,09,10,11,12,1.0,1.0,1.0*30
$GPRMC,102312.098,A,5133.460,N,03924.575,E,038.9,073.5,130824,000.0,W*7A
$GPGGA,102313.098,5133.463,N,03924.591,E,1,12,1.0,0.0,M,0.0,M,,*69
$GPGSA,A,3,01,02,03,04,05,06,07,08,09,10,11,12,1.0,1.0,1.0*30
$GPRMC,102313.098,A,5133.463,N,03924.591,E,038.9,073.5,130824,000.0,W*72
