$GPGGA,144630.238,5659.037,N,04602.986,E,1,12,1.0,0.0,M,0.0,M,,*6F
$GPGSA,A,3,01,02,03,04,05,06,07,08,09,10,11,12,1.0,1.0,1.0*30
$GPRMC,144630.238,A,5659.037,N,04602.986,E,007.8,266.6,140824,000.0,W*7B
$GPGGA,144631.238,5659.037,N,04602.982,E,1,12,1.0,0.0,M,0.0,M,,*6A
$GPGSA,A,3,01,02,03,04,05,06,07,08,09,10,11,12,1.0,1.0,1.0*30
$GPRMC,144631.238,A,5659.037,N,04602.982,E,007.8,266.6,140824,000.0,W*7E
$GPGGA,144632.238,5659.037,N,04602.979,E,1,12,1.0,0.0,M,0.0,M,,*6D
$GPGSA,A,3,01,02,03,04,05,06,07,08,09,10,11,12,1.0,1.0,1.0*30
$GPRMC,144632.238,A,5659.037,N,04602.979,E,007.8,275.6,140824,000.0,W*7B
$GPGGA,144633.238,5659.037,N,04602.975,E,1,12,1.0,0.0,M,0.0,M,,*60
$GPGSA,A,3,01,02,03,04,05,06,07,08,09,10,11,12,1.0,1.0,1.0*30
$GPRMC,144633.238,A,5659.037,N,04602.975,E,007.8,275.6,140824,000.0,W*76
$GPGGA,144634.238,5659.037,N,04602.971,E,1,12,1.0,0.0,M,0.0,M,,*63
$GPGSA,A,3,01,02,03,04,05,06,07,08,09,10,11,12,1.0,1.0,1.0*30
$GPRMC,144634.238,A,5659.037,N,04602.971,E,007.8,301.2,140824,000.0,W*73
$GPGGA,144635.238,5659.038,N,04602.967,E,1,12,1.0,0.0,M,0.0,M,,*6A
$GPGSA,A,3,01,02,03,04,05,06,07,08,09,10,11,12,1.0,1.0,1.0*30
$GPRMC,144635.238,A,5659.038,N,04602.967,E,007.8,301.2,140824,000.0,W*7A
$GPGGA,144636.238,5659.039,N,04602.964,E,1,12,1.0,0.0,M,0.0,M,,*6B
$GPGSA,A,3,01,02,03,04,05,06,07,08,09,10,11,12,1.0,1.0,1.0*30
$GPRMC,144636.238,A,5659.039,N,04602.964,E,007.8,343.2,140824,000.0,W*7D
$GPGGA,144637.238,5659.042,N,04602.963,E,1,12,1.0,0.0,M,0.0,M,,*61
$GPGSA,A,3,01,02,03,04,05,06,07,08,09,10,11,12,1.0,1.0,1.0*30
$GPRMC,144637.238,A,5659.042,N,04602.963,E,007.8,351.2,140824,000.0,W*74
$GPGGA,144638.238,5659.044,N,04602.962,E,1,12,1.0,0.0,M,0.0,M,,*69
$GPGSA,A,3,01,02,03,04,05,06,07,08,09,10,11,12,1.0,1.0,1.0*30
$GPRMC,144638.238,A,5659.044,N,04602.962,E,007.8,011.3,140824,000.0,W*7A
$GPGGA,144639.238,5659.046,N,04602.963,E,1,12,1.0,0.0,M,0.0,M,,*6B
$GPGSA,A,3,01,02,03,04,05,06,07,08,09,10,11,12,1.0,1.0,1.0*30
$GPRMC,144639.238,A,5659.046,N,04602.963,E,007.8,011.3,140824,000.0,W*78
$GPGGA,144640.238,5659.048,N,04602.964,E,1,12,1.0,0.0,M,0.0,M,,*6C
$GPGSA,A,3,01,02,03,04,05,06,07,08,09,10,11,12,1.0,1.0,1.0*30
$GPRMC,144640.238,A,5659.048,N,04602.964,E,007.8,032.5,140824,000.0,W*78
$GPGGA,144641.238,5659.050,N,04602.966,E,1,12,1.0,0.0,M,0.0,M,,*66
$GPGSA,A,3,01,02,03,04,05,06,07,08,09,10,11,12,1.0,1.0,1.0*30
$GPRMC,144641.238,A,5659.050,N,04602.966,E,007.8,072.3,140824,000.0,W*70
$GPGGA,144642.238,5659.050,N,04602.970,E,1,12,1.0,0.0,M,0.0,M,,*62
$GPGSA,A,3,01,02,03,04,05,06,07,08,09,10,11,12,1.0,1.0,1.0*30
$GPRMC,144642.238,A,5659.050,N,04602.970,E,007.8,083.5,140824,000.0,W*7C
$GPGGA,144643.238,5659.051,N,04602.973,E,1,12,1.0,0.0,M,0.0,M,,*61
$GPGSA,A,3,01,02,03,04,05,06,07,08,09,10,11,12,1.0,1.0,1.0*30
$GPRMC,144643.238,A,5659.051,N,04602.973,E,007.8,083.5,140824,000.0,W*7F
$GPGGA,144644.238,5659.051,N,04602.977,E,1,12,1.0,0.0,M,0.0,M,,*62
$GPGSA,A,3,01,02,03,04,05,06,07,08,09,10,11,12,1.0,1.0,1.0*30
$GPRMC,144644.238,A,5659.051,N,04602.977,E,007.8,092.7,140824,000.0,W*7E
$GPGGA,144645.238,5659.051,N,04602.981,E,1,12,1.0,0.0,M,0.0,M,,*6A
$GPGSA,A,3,01,02,03,04,05,06,07,08,09,10,11,12,1.0,1.0,1.0*30
$GPRMC,144645.238,A,5659.051,N,04602.981,E,007.8,102.3,140824,000.0,W*7A
$GPGGA,144646.238,5659.050,N,04602.985,E,1,12,1.0,0.0,M,0.0,M,,*6C
$GPGSA,A,3,01,02,03,04,05,06,07,08,09,10,11,12,1.0,1.0,1.0*30
$GPRMC,144646.238,A,5659.050,N,04602.985,E,007.8,106.9,140824,000.0,W*72
$GPGGA,144647.238,5659.050,N,04602.989,E,1,12,1.0,0.0,M,0.0,M,,*61
$GPGSA,A,3,01,02,03,04,05,06,07,08,09,10,11,12,1.0,1.0,1.0*30
$GPRMC,144647.238,A,5659.050,N,04602.989,E,007.8,114.1,140824,000.0,W*74
$GPGGA,144648.238,5659.049,N,04602.993,E,1,12,1.0,0.0,M,0.0,M,,*6D
$GPGSA,A,3,01,02,03,04,05,06,07,08,09,10,11,12,1.0,1.0,1.0*30
$GPRMC,144648.238,A,5659.049,N,04602.993,E,007.8,121.8,140824,000.0,W*77
$GPGGA,144649.238,5659.048,N,04602.996,E,1,12,1.0,0.0,M,0.0,M,,*68
$GPGSA,A,3,01,02,03,04,05,06,07,08,09,10,11,12,1.0,1.0,1.0*30
$GPRMC,144649.238,A,5659.048,N,04602.996,E,007.8,145.9,140824,000.0,W*71
$GPGGA,144650.238,5659.046,N,04602.998,E,1,12,1.0,0.0,M,0.0,M,,*60
$GPGSA,A,3,01,02,03,04,05,06,07,08,09,10,11,12,1.0,1.0,1.0*30
$GPRMC,144650.238,A,5659.046,N,04602.998,E,007.8,156.9,140824,000.0,W*7B
$GPGGA,144651.238,5659.044,N,04603.000,E,1,12,1.0,0.0,M,0.0,M,,*6A
$GPGSA,A,3,01,02,03,04,05,06,07,08,09,10,11,12,1.0,1.0,1.0*30
$GPRMC,144651.238,A,5659.044,N,04603.000,E,007.8,178.9,140824,000.0,W*7D
$GPGGA,144652.238,5659.042,N,04603.000,E,1,12,1.0,0.0,M,0.0,M,,*6F
$GPGSA,A,3,01,02,03,04,05,06,07,08,09,10,11,12,1.0,1.0,1.0*30
$GPRMC,144652.238,A,5659.042,N,04603.000,E,007.8,193.4,140824,000.0,W*70
$GPGGA,144653.238,5659.040,N,04602.999,E,1,12,1.0,0.0,M,0.0,M,,*64
$GPGSA,A,3,01,02,03,04,05,06,07,08,09,10,11,12,1.0,1.0,1.0*30
$GPRMC,144653.238,A,5659.040,N,04602.999,E,007.8,221.1,140824,000.0,W*74
$GPGGA,144654.238,5659.038,N,04602.996,E,1,12,1.0,0.0,M,0.0,M,,*63
$GPGSA,A,3,01,02,03,04,05,06,07,08,09,10,11,12,1.0,1.0,1.0*30
$GPRMC,144654.238,A,5659.038,N,04602.996,E,007.8,252.5,140824,000.0,W*73
$GPGGA,144655.238,5659.037,N,04602.993,E,1,12,1.0,0.0,M,0.0,M,,*68
$GPGSA,A,3,01,02,03,04,05,06,07,08,09,10,11,12,1.0,1.0,1.0*30
$GPRMC,144655.238,A,5659.037,N,04602.993,E,007.8,262.0,140824,000.0,W*7E
$GPGGA,144656.238,5659.037,N,04602.989,E,1,12,1.0,0.0,M,0.0,M,,*60
$GPGSA,A,3,01,02,03,04,05,06,07,08,09,10,11,12,1.0,1.0,1.0*30
$GPRMC,144656.238,A,5659.037,N,04602.989,E,007.8,262.0,140824,000.0,W*76
