$GPGGA,102231.098,5133.449,N,03924.543,E,1,12,1.0,0.0,M,0.0,M,,*6F
$GPGSA,A,3,01,02,03,04,05,06,07,08,09,10,11,12,1.0,1.0,1.0*30
$GPRMC,102231.098,A,5133.449,N,03924.543,E,038.9,071.6,130824,000.0,W*75
$GPGGA,102232.098,5133.452,N,03924.560,E,1,12,1.0,0.0,M,0.0,M,,*67
$GPGSA,A,3,01,02,03,04,05,06,07,08,09,10,11,12,1.0,1.0,1.0*30
$GPRMC,102232.098,A,5133.452,N,03924.560,E,038.9,071.6,130824,000.0,W*7D
$GPGGA,102233.098,5133.455,N,03924.576,E,1,12,1.0,0.0,M,0.0,M,,*66
$GPGSA,A,3,01,02,03,04,05,06,07,08,09,10,11,12,1.0,1.0,1.0*30
$GPRMC,102233.098,A,5133.455,N,03924.576,E,038.9,071.6,130824,000.0,W*7C
$GPGGA,102234.098,5133.459,N,03924.593,E,1,12,1.0,0.0,M,0.0,M,,*66
$GPGSA,A,3,01,02,03,04,05,06,07,08,09,10,11,12,1.0,1.0,1.0*30
$GPRMC,102234.098,A,5133.459,N,03924.593,E,038.9,071.6,130824,000.0,W*7C
$GPGGA,102235.098,5133.462,N,03924.609,E,1,12,1.0,0.0,M,0.0,M,,*6F
$GPGSA,A,3,01,02,03,04,05,06,07,08,09,10,11,12,1.0,1.0,1.0*30
$GPRMC,102235.098,A,5133.462,N,03924.609,E,038.9,071.6,130824,000.0,W*75
$GPGGA,102236.098,5133.466,N,03924.626,E,1,12,1.0,0.0,M,0.0,M,,*65
$GPGSA,A,3,01,02,03,04,05,06,07,08,09,10,11,12,1.0,1.0,1.0*30
$GPRMC,102236.098,A,5133.466,N,03924.626,E,038.9,071.6,130824,000.0,W*7F
$GPGGA,102237.098,5133.469,N,03924.642,E,1,12,1.0,0.0,M,0.0,M,,*69
$GPGSA,A,3,01,02,03,04,05,06,07,08,09,10,11,12,1.0,1.0,1.0*30
$GPRMC,102237.098,A,5133.469,N,03924.642,E,038.9,071.6,130824,000.0,W*73
$GPGGA,102238.098,5133.472,N,03924.659,E,1,12,1.0,0.0,M,0.0,M,,*66
$GPGSA,A,3,01,02,03,04,05,06,07,08,09,10,11,12,1.0,1.0,1.0*30
$GPRMC,102238.098,A,5133.472,N,03924.659,E,038.9,071.6,130824,000.0,W*7C
$GPGGA,102239.098,5133.476,N,03924.675,E,1,12,1.0,0.0,M,0.0,M,,*6D
$GPGSA,A,3,01,02,03,04,05,06,07,08,09,10,11,12,1.0,1.0,1.0*30
$GPRMC,102239.098,A,5133.476,N,03924.675,E,038.9,071.6,130824,000.0,W*77
$GPGGA,102240.098,5133.479,N,03924.691,E,1,12,1.0,0.0,M,0.0,M,,*66
$GPGSA,A,3,01,02,03,04,05,06,07,08,09,10,11,12,1.0,1.0,1.0*30
$GPRMC,102240.098,A,5133.479,N,03924.691,E,038.9,071.6,130824,000.0,W*7C
$GPGGA,102241.098,5133.483,N,03924.708,E,1,12,1.0,0.0,M,0.0,M,,*63
$GPGSA,A,3,01,02,03,04,05,06,07,08,09,10,11,12,1.0,1.0,1.0*30
$GPRMC,102241.098,A,5133.483,N,03924.708,E,038.9,071.6,130824,000.0,W*79
$GPGGA,102242.098,5133.486,N,03924.724,E,1,12,1.0,0.0,M,0.0,M,,*6B
$GPGSA,A,3,01,02,03,04,05,06,07,08,09,10,11,12,1.0,1.0,1.0*30
$GPRMC,102242.098,A,5133.486,N,03924.724,E,038.9,071.6,130824,000.0,W*71
$GPGGA,102243.098,5133.489,N,03924.741,E,1,12,1.0,0.0,M,0.0,M,,*66
$GPGSA,A,3,01,02,03,04,05,06,07,08,09,10,11,12,1.0,1.0,1.0*30
$GPRMC,102243.098,A,5133.489,N,03924.741,E,038.9,071.6,130824,000.0,W*7C
$GPGGA,102244.098,5133.493,N,03924.757,E,1,12,1.0,0.0,M,0.0,M,,*6D
$GPGSA,A,3,01,02,03,04,05,06,07,08,09,10,11,12,1.0,1.0,1.0*30
$GPRMC,102244.098,A,5133.493,N,03924.757,E,038.9,071.6,130824,000.0,W*77
$GPGGA,102245.098,5133.496,N,03924.774,E,1,12,1.0,0.0,M,0.0,M,,*68
$GPGSA,A,3,01,02,03,04,05,06,07,08,09,10,11,12,1.0,1.0,1.0*30
$GPRMC,102245.098,A,5133.496,N,03924.774,E,038.9,071.6,130824,000.0,W*72
$GPGGA,102246.098,5133.500,N,03924.790,E,1,12,1.0,0.0,M,0.0,M,,*6F
$GPGSA,A,3,01,02,03,04,05,06,07,08,09,10,11,12,1.0,1.0,1.0*30
$GPRMC,102246.098,A,5133.500,N,03924.790,E,038.9,071.6,130824,000.0,W*75
$GPGGA,102247.098,5133.503,N,03924.807,E,1,12,1.0,0.0,M,0.0,M,,*6C
$GPGSA,A,3,01,02,03,04,05,06,07,08,09,10,11,12,1.0,1.0,1.0*30
$GPRMC,102247.098,A,5133.503,N,03924.807,E,038.9,071.6,130824,000.0,W*76
$GPGGA,102248.098,5133.506,N,03924.823,E,1,12,1.0,0.0,M,0.0,M,,*60
$GPGSA,A,3,01,02,03,04,05,06,07,08,09,10,11,12,1.0,1.0,1.0*30
$GPRMC,102248.098,A,5133.506,N,03924.823,E,038.9,071.6,130824,000.0,W*7A
$GPGGA,102249.098,5133.510,N,03924.840,E,1,12,1.0,0.0,M,0.0,M,,*63
$GPGSA,A,3,01,02,03,04,05,06,07,08,09,10,11,12,1.0,1.0,1.0*30
$GPRMC,102249.098,A,5133.510,N,03924.840,E,038.9,071.6,130824,000.0,W*79
$GPGGA,102250.098,5133.513,N,03924.856,E,1,12,1.0,0.0,M,0.0,M,,*6F
$GPGSA,A,3,01,02,03,04,05,06,07,08,09,10,11,12,1.0,1.0,1.0*30
$GPRMC,102250.098,A,5133.513,N,03924.856,E,038.9,071.6,130824,000.0,W*75
$GPGGA,102251.098,5133.517,N,03924.873,E,1,12,1.0,0.0,M,0.0,M,,*6D
$GPGSA,A,3,01,02,03,04,05,06,07,08,09,10,11,12,1.0,1.0,1.0*30
$GPRMC,102251.098,A,5133.517,N,03924.873,E,038.9,071.6,130824,000.0,W*77
$GPGGA,102252.098,5133.520,N,03924.889,E,1,12,1.0,0.0,M,0.0,M,,*6F
$GPGSA,A,3,01,02,03,04,05,06,07,08,09,10,11,12,1.0,1.0,1.0*30
$GPRMC,102252.098,A,5133.520,N,03924.889,E,038.9,071.6,130824,000.0,W*75
$GPGGA,102253.098,5133.523,N,03924.906,E,1,12,1.0,0.0,M,0.0,M,,*6B
$GPGSA,A,3,01,02,03,04,05,06,07,08,09,10,11,12,1.0,1.0,1.0*30
$GPRMC,102253.098,A,5133.523,N,03924.906,E,038.9,071.6,130824,000.0,W*71
$GPGGA,102254.098,5133.527,N,03924.922,E,1,12,1.0,0.0,M,0.0,M,,*6E
$GPGSA,A,3,01,02,03,04,05,06,07,08,09,10,11,12,1.0,1.0,1.0*30
$GPRMC,102254.098,A,5133.527,N,03924.922,E,038.9,027.6,130824,000.0,W*77
$GPGGA,102255.098,5133.536,N,03924.930,E,1,12,1.0,0.0,M,0.0,M,,*6C
$GPGSA,A,3,01,02,03,04,05,06,07,08,09,10,11,12,1.0,1.0,1.0*30
$GPRMC,102255.098,A,5133.536,N,03924.930,E,038.9,027.6,130824,000.0,W*75
$GPGGA,102256.098,5133.546,N,03924.938,E,1,12,1.0,0.0,M,0.0,M,,*60
$GPGSA,A,3,01,02,03,04,05,06,07,08,09,10,11,12,1.0,1.0,1.0*30
$GPRMC,102256.098,A,5133.546,N,03924.938,E,038.9,339.1,130824,000.0,W*72
$GPGGA,102257.098,5133.556,N,03924.932,E,1,12,1.0,0.0,M,0.0,M,,*6A
$GPGSA,A,3,01,02,03,04,05,06,07,08,09,10,11,12,1.0,1.0,1.0*30
$GPRMC,102257.098,A,5133.556,N,03924.932,E,038.9,275.6,130824,000.0,W*76
$GPGGA,102258.098,5133.557,N,03924.915,E,1,12,1.0,0.0,M,0.0,M,,*61
$GPGSA,A,3,01,02,03,04,05,06,07,08,09,10,11,12,1.0,1.0,1.0*30
$GPRMC,102258.098,A,5133.557,N,03924.915,E,038.9,275.6,130824,000.0,W*7D
$GPGGA,102259.098,5133.558,N,03924.897,E,1,12,1.0,0.0,M,0.0,M,,*64
$GPGSA,A,3,01,02,03,04,05,06,07,08,09,10,11,12,1.0,1.0,1.0*30
$GPRMC,102259.098,A,5133.558,N,03924.897,E,038.9,250.2,130824,000.0,W*7B
$GPGGA,102300.098,5133.554,N,03924.881,E,1,12,1.0,0.0,M,0.0,M,,*62
$GPGSA,A,3,01,02,03,04,05,06,07,08,09,10,11,12,1.0,1.0,1.0*30
$GPRMC,102300.098,A,5133.554,N,03924.881,E,038.9,250.2,130824,000.0,W*7D
$GPGGA,102301.098,5133.551,N,03924.865,E,1,12,1.0,0.0,M,0.0,M,,*6C
$GPGSA,A,3,01,02,03,04,05,06,07,08,09,10,11,12,1.0,1.0,1.0*30
$GPRMC,102301.098,A,5133.551,N,03924.865,E,038.9,250.2,130824,000.0,W*73
$GPGGA,102302.098,5133.547,N,03924.848,E,1,12,1.0,0.0,M,0.0,M,,*67
$GPGSA,A,3,01,02,03,04,05,06,07,08,09,10,11,12,1.0,1.0,1.0*30
$GPRMC,102302.098,A,5133.547,N,03924.848,E,038.9,250.2,130824,000.0,W*78
$GPGGA,102303.098,5133.544,N,03924.832,E,1,12,1.0,0.0,M,0.0,M,,*68
$GPGSA,A,3,01,02,03,04,05,06,07,08,09,10,11,12,1.0,1.0,1.0*30
$GPRMC,102303.098,A,5133.544,N,03924.832,E,038.9,250.2,130824,000.0,W*77
$GPGGA,102304.098,5133.540,N,03924.816,E,1,12,1.0,0.0,M,0.0,M,,*6D
$GPGSA,A,3,01,02,03,04,05,06,07,08,09,10,11,12,1.0,1.0,1.0*30
$GPRMC,102304.098,A,5133.540,N,03924.816,E,038.9,250.2,130824,000.0,W*72
$GPGGA,102305.098,5133.536,N,03924.799,E,1,12,1.0,0.0,M,0.0,M,,*65
$GPGSA,A,3,01,02,03,04,05,06,07,08,09,10,11,12,1.0,1.0,1.0*30
$GPRMC,102305.098,A,5133.536,N,03924.799,E,038.9,250.2,130824,000.0,W*7A
$GPGGA,102306.098,5133.533,N,03924.783,E,1,12,1.0,0.0,M,0.0,M,,*68
$GPGSA,A,3,01,02,03,04,05,06,07,08,09,10,11,12,1.0,1.0,1.0*30
$GPRMC,102306.098,A,5133.533,N,03924.783,E,038.9,250.2,130824,000.0,W*77
$GPGGA,102307.098,5133.529,N,03924.767,E,1,12,1.0,0.0,M,0.0,M,,*68
$GPGSA,A,3,01,02,03,04,05,06,07,08,09,10,11,12,1.0,1.0,1.0*30
$GPRMC,102307.098,A,5133.529,N,03924.767,E,038.9,250.2,130824,000.0,W*77
$GPGGA,102308.098,5133.525,N,03924.750,E,1,12,1.0,0.0,M,0.0,M,,*6F
$GPGSA,A,3,01,02,03,04,05,06,07,08,09,10,11,12,1.0,1.0,1.0*30
$GPRMC,102308.098,A,5133.525,N,03924.750,E,038.9,250.2,130824,000.0,W*70
$GPGGA,102309.098,5133.522,N,03924.734,E,1,12,1.0,0.0,M,0.0,M,,*6B
$GPGSA,A,3,01,02,03,04,05,06,07,08,09,10,11,12,1.0,1.0,1.0*30
$GPRMC,102309.098,A,5133.522,N,03924.734,E,038.9,250.2,130824,000.0,W*74
$GPGGA,102310.098,5133.518,N,03924.718,E,1,12,1.0,0.0,M,0.0,M,,*64
$GPGSA,A,3,01,02,03,04,05,06,07,08,09,10,11,12,1.0,1.0,1.0*30
$GPRMC,102310.098,A,5133.518,N,03924.718,E,038.9,250.2,130824,000.0,W*7B
$GPGGA,102311.098,5133.514,N,03924.701,E,1,12,1.0,0.0,M,0.0,M,,*61
$GPGSA,A,3,01,02,03,04,05,06,07,08,09,10,11,12,1.0,1.0,1.0*30
$GPRMC,102311.098,A,5133.514,N,03924.701,E,038.9,250.2,130824,000.0,W*7E
$GPGGA,102312.098,5133.511,N,03924.685,E,1,12,1.0,0.0,M,0.0,M,,*6A
$GPGSA,A,3,01,02,03,04,05,06,07,08,09,10,11,12,1.0,1.0,1.0*30
$GPRMC,102312.098,A,5133.511,N,03924.685,E,038.9,250.2,130824,000.0,W*75
$GPGGA,102313.098,5133.507,N,03924.669,E,1,12,1.0,0.0,M,0.0,M,,*6E
$GPGSA,A,3,01,02,03,04,05,06,07,08,09,10,11,12,1.0,1.0,1.0*30
$GPRMC,102313.098,A,5133.507,N,03924.669,E,038.9,250.2,130824,000.0,W*71
$GPGGA,102314.098,5133.503,N,03924.652,E,1,12,1.0,0.0,M,0.0,M,,*65
$GPGSA,A,3,01,02,03,04,05,06,07,08,09,10,11,12,1.0,1.0,1.0*30
$GPRMC,102314.098,A,5133.503,N,03924.652,E,038.9,250.2,130824,000.0,W*7A
$GPGGA,102315.098,5133.500,N,03924.636,E,1,12,1.0,0.0,M,0.0,M,,*65
$GPGSA,A,3,01,02,03,04,05,06,07,08,09,10,11,12,1.0,1.0,1.0*30
$GPRMC,102315.098,A,5133.500,N,03924.636,E,038.9,250.2,130824,000.0,W*7A
$GPGGA,102316.098,5133.496,N,03924.620,E,1,12,1.0,0.0,M,0.0,M,,*6F
$GPGSA,A,3,01,02,03,04,05,06,07,08,09,10,11,12,1.0,1.0,1.0*30
$GPRMC,102316.098,A,5133.496,N,03924.620,E,038.9,250.2,130824,000.0,W*70
$GPGGA,102317.098,5133.492,N,03924.603,E,1,12,1.0,0.0,M,0.0,M,,*6B
$GPGSA,A,3,01,02,03,04,05,06,07,08,09,10,11,12,1.0,1.0,1.0*30
$GPRMC,102317.098,A,5133.492,N,03924.603,E,038.9,250.2,130824,000.0,W*74
$GPGGA,102318.098,5133.489,N,03924.587,E,1,12,1.0,0.0,M,0.0,M,,*61
$GPGSA,A,3,01,02,03,04,05,06,07,08,09,10,11,12,1.0,1.0,1.0*30
$GPRMC,102318.098,A,5133.489,N,03924.587,E,038.9,250.2,130824,000.0,W*7E
$GPGGA,102319.098,5133.485,N,03924.571,E,1,12,1.0,0.0,M,0.0,M,,*65
$GPGSA,A,3,01,02,03,04,05,06,07,08,09,10,11,12,1.0,1.0,1.0*30
$GPRMC,102319.098,A,5133.485,N,03924.571,E,038.9,250.2,130824,000.0,W*7A
$GPGGA,102320.098,5133.481,N,03924.554,E,1,12,1.0,0.0,M,0.0,M,,*6C
$GPGSA,A,3,01,02,03,04,05,06,07,08,09,10,11,12,1.0,1.0,1.0*30
$GPRMC,102320.098,A,5133.481,N,03924.554,E,038.9,250.2,130824,000.0,W*73
$GPGGA,102321.098,5133.478,N,03924.538,E,1,12,1.0,0.0,M,0.0,M,,*61
$GPGSA,A,3,01,02,03,04,05,06,07,08,09,10,11,12,1.0,1.0,1.0*30
$GPRMC,102321.098,A,5133.478,N,03924.538,E,038.9,264.6,130824,000.0,W*7D
$GPGGA,102322.098,5133.477,N,03924.521,E,1,12,1.0,0.0,M,0.0,M,,*65
$GPGSA,A,3,01,02,03,04,05,06,07,08,09,10,11,12,1.0,1.0,1.0*30
$GPRMC,102322.098,A,5133.477,N,03924.521,E,038.9,264.6,130824,000.0,W*79
$GPGGA,102323.098,5133.476,N,03924.504,E,1,12,1.0,0.0,M,0.0,M,,*62
$GPGSA,A,3,01,02,03,04,05,06,07,08,09,10,11,12,1.0,1.0,1.0*30
$GPRMC,102323.098,A,5133.476,N,03924.504,E,038.9,329.2,130824,000.0,W*72
$GPGGA,102324.098,5133.485,N,03924.495,E,1,12,1.0,0.0,M,0.0,M,,*60
$GPGSA,A,3,01,02,03,04,05,06,07,08,09,10,11,12,1.0,1.0,1.0*30
$GPRMC,102324.098,A,5133.485,N,03924.495,E,038.9,004.9,130824,000.0,W*77
$GPGGA,102325.098,5133.496,N,03924.496,E,1,12,1.0,0.0,M,0.0,M,,*60
$GPGSA,A,3,01,02,03,04,05,06,07,08,09,10,11,12,1.0,1.0,1.0*30
$GPRMC,102325.098,A,5133.496,N,03924.496,E,038.9,069.9,130824,000.0,W*7C
$GPGGA,102326.098,5133.499,N,03924.512,E,1,12,1.0,0.0,M,0.0,M,,*61
$GPGSA,A,3,01,02,03,04,05,06,07,08,09,10,11,12,1.0,1.0,1.0*30
$GPRMC,102326.098,A,5133.499,N,03924.512,E,038.9,069.9,130824,000.0,W*7D
$GPGGA,102327.098,5133.503,N,03924.529,E,1,12,1.0,0.0,M,0.0,M,,*6A
$GPGSA,A,3,01,02,03,04,05,06,07,08,09,10,11,12,1.0,1.0,1.0*30
$GPRMC,102327.098,A,5133.503,N,03924.529,E,038.9,069.9,130824,000.0,W*76
$GPGGA,102328.098,5133.507,N,03924.545,E,1,12,1.0,0.0,M,0.0,M,,*6B
$GPGSA,A,3,01,02,03,04,05,06,07,08,09,10,11,12,1.0,1.0,1.0*30
$GPRMC,102328.098,A,5133.507,N,03924.545,E,038.9,069.9,130824,000.0,W*77
$GPGGA,102329.098,5133.511,N,03924.561,E,1,12,1.0,0.0,M,0.0,M,,*6B
$GPGSA,A,3,01,02,03,04,05,06,07,08,09,10,11,12,1.0,1.0,1.0*30
$GPRMC,102329.098,A,5133.511,N,03924.561,E,038.9,069.9,130824,000.0,W*77
$GPGGA,102330.098,5133.514,N,03924.578,E,1,12,1.0,0.0,M,0.0,M,,*6E
$GPGSA,A,3,01,02,03,04,05,06,07,08,09,10,11,12,1.0,1.0,1.0*30
$GPRMC,102330.098,A,5133.514,N,03924.578,E,038.9,069.9,130824,000.0,W*72
$GPGGA,102331.098,5133.518,N,03924.594,E,1,12,1.0,0.0,M,0.0,M,,*61
$GPGSA,A,3,01,02,03,04,05,06,07,08,09,10,11,12,1.0,1.0,1.0*30
$GPRMC,102331.098,A,5133.518,N,03924.594,E,038.9,069.9,130824,000.0,W*7D
$GPGGA,102332.098,5133.522,N,03924.610,E,1,12,1.0,0.0,M,0.0,M,,*64
$GPGSA,A,3,01,02,03,04,05,06,07,08,09,10,11,12,1.0,1.0,1.0*30
$GPRMC,102332.098,A,5133.522,N,03924.610,E,038.9,069.9,130824,000.0,W*78
$GPGGA,102333.098,5133.525,N,03924.627,E,1,12,1.0,0.0,M,0.0,M,,*66
$GPGSA,A,3,01,02,03,04,05,06,07,08,09,10,11,12,1.0,1.0,1.0*30
$GPRMC,102333.098,A,5133.525,N,03924.627,E,038.9,069.9,130824,000.0,W*7A
$GPGGA,102334.098,5133.529,N,03924.643,E,1,12,1.0,0.0,M,0.0,M,,*6F
$GPGSA,A,3,01,02,03,04,05,06,07,08,09,10,11,12,1.0,1.0,1.0*30
$GPRMC,102334.098,A,5133.529,N,03924.643,E,038.9,069.9,130824,000.0,W*73
$GPGGA,102335.098,5133.533,N,03924.659,E,1,12,1.0,0.0,M,0.0,M,,*6E
$GPGSA,A,3,01,02,03,04,05,06,07,08,09,10,11,12,1.0,1.0,1.0*30
$GPRMC,102335.098,A,5133.533,N,03924.659,E,038.9,069.9,130824,000.0,W*72
$GPGGA,102336.098,5133.536,N,03924.675,E,1,12,1.0,0.0,M,0.0,M,,*66
$GPGSA,A,3,01,02,03,04,05,06,07,08,09,10,11,12,1.0,1.0,1.0*30
$GPRMC,102336.098,A,5133.536,N,03924.675,E,038.9,069.9,130824,000.0,W*7A
$GPGGA,102337.098,5133.540,N,03924.692,E,1,12,1.0,0.0,M,0.0,M,,*6F
$GPGSA,A,3,01,02,03,04,05,06,07,08,09,10,11,12,1.0,1.0,1.0*30
$GPRMC,102337.098,A,5133.540,N,03924.692,E,038.9,069.9,130824,000.0,W*73
$GPGGA,102338.098,5133.544,N,03924.708,E,1,12,1.0,0.0,M,0.0,M,,*66
$GPGSA,A,3,01,02,03,04,05,06,07,08,09,10,11,12,1.0,1.0,1.0*30
$GPRMC,102338.098,A,5133.544,N,03924.708,E,038.9,069.9,130824,000.0,W*7A
$GPGGA,102339.098,5133.548,N,03924.724,E,1,12,1.0,0.0,M,0.0,M,,*65
$GPGSA,A,3,01,02,03,04,05,06,07,08,09,10,11,12,1.0,1.0,1.0*30
$GPRMC,102339.098,A,5133.548,N,03924.724,E,038.9,069.9,130824,000.0,W*79
$GPGGA,102340.098,5133.551,N,03924.741,E,1,12,1.0,0.0,M,0.0,M,,*60
$GPGSA,A,3,01,02,03,04,05,06,07,08,09,10,11,12,1.0,1.0,1.0*30
$GPRMC,102340.098,A,5133.551,N,03924.741,E,038.9,069.9,130824,000.0,W*7C
$GPGGA,102341.098,5133.555,N,03924.757,E,1,12,1.0,0.0,M,0.0,M,,*62
$GPGSA,A,3,01,02,03,04,05,06,07,08,09,10,11,12,1.0,1.0,1.0*30
$GPRMC,102341.098,A,5133.555,N,03924.757,E,038.9,069.9,130824,000.0,W*7E
$GPGGA,102342.098,5133.559,N,03924.773,E,1,12,1.0,0.0,M,0.0,M,,*6B
$GPGSA,A,3,01,02,03,04,05,06,07,08,09,10,11,12,1.0,1.0,1.0*30
$GPRMC,102342.098,A,5133.559,N,03924.773,E,038.9,069.9,130824,000.0,W*77
$GPGGA,102343.098,5133.562,N,03924.790,E,1,12,1.0,0.0,M,0.0,M,,*6F
$GPGSA,A,3,01,02,03,04,05,06,07,08,09,10,11,12,1.0,1.0,1.0*30
$GPRMC,102343.098,A,5133.562,N,03924.790,E,038.9,069.9,130824,000.0,W*73
$GPGGA,102344.098,5133.566,N,03924.806,E,1,12,1.0,0.0,M,0.0,M,,*6C
$GPGSA,A,3,01,02,03,04,05,06,07,08,09,10,11,12,1.0,1.0,1.0*30
$GPRMC,102344.098,A,5133.566,N,03924.806,E,038.9,069.9,130824,000.0,W*70
$GPGGA,102345.098,5133.570,N,03924.822,E,1,12,1.0,0.0,M,0.0,M,,*6C
$GPGSA,A,3,01,02,03,04,05,06,07,08,09,10,11,12,1.0,1.0,1.0*30
$GPRMC,102345.098,A,5133.570,N,03924.822,E,038.9,069.9,130824,000.0,W*70
$GPGGA,102346.098,5133.574,N,03924.839,E,1,12,1.0,0.0,M,0.0,M,,*61
$GPGSA,A,3,01,02,03,04,05,06,07,08,09,10,11,12,1.0,1.0,1.0*30
$GPRMC,102346.098,A,5133.574,N,03924.839,E,038.9,069.9,130824,000.0,W*7D
$GPGGA,102347.098,5133.577,N,03924.855,E,1,12,1.0,0.0,M,0.0,M,,*69
$GPGSA,A,3,01,02,03,04,05,06,07,08,09,10,11,12,1.0,1.0,1.0*30
$GPRMC,102347.098,A,5133.577,N,03924.855,E,038.9,069.9,130824,000.0,W*75
$GPGGA,102348.098,5133.581,N,03924.871,E,1,12,1.0,0.0,M,0.0,M,,*69
$GPGSA,A,3,01,02,03,04,05,06,07,08,09,10,11,12,1.0,1.0,1.0*30
$GPRMC,102348.098,A,5133.581,N,03924.871,E,038.9,069.9,130824,000.0,W*75
$GPGGA,102349.098,5133.585,N,03924.887,E,1,12,1.0,0.0,M,0.0,M,,*65
$GPGSA,A,3,01,02,03,04,05,06,07,08,09,10,11,12,1.0,1.0,1.0*30
$GPRMC,102349.098,A,5133.585,N,03924.887,E,038.9,075.5,130824,000.0,W*78
$GPGGA,102350.098,5133.587,N,03924.904,E,1,12,1.0,0.0,M,0.0,M,,*65
$GPGSA,A,3,01,02,03,04,05,06,07,08,09,10,11,12,1.0,1.0,1.0*30
$GPRMC,102350.098,A,5133.587,N,03924.904,E,038.9,075.5,130824,000.0,W*78
$GPGGA,102351.098,5133.590,N,03924.921,E,1,12,1.0,0.0,M,0.0,M,,*65
$GPGSA,A,3,01,02,03,04,05,06,07,08,09,10,11,12,1.0,1.0,1.0*30
$GPRMC,102351.098,A,5133.590,N,03924.921,E,038.9,075.5,130824,000.0,W*78
$GPGGA,102352.098,5133.593,N,03924.938,E,1,12,1.0,0.0,M,0.0,M,,*6D
$GPGSA,A,3,01,02,03,04,05,06,07,08,09,10,11,12,1.0,1.0,1.0*30
$GPRMC,102352.098,A,5133.593,N,03924.938,E,038.9,075.5,130824,000.0,W*70
$GPGGA,102353.098,5133.595,N,03924.955,E,1,12,1.0,0.0,M,0.0,M,,*61
$GPGSA,A,3,01,02,03,04,05,06,07,08,09,10,11,12,1.0,1.0,1.0*30
$GPRMC,102353.098,A,5133.595,N,03924.955,E,038.9,159.7,130824,000.0,W*71
$GPGGA,102354.098,5133.585,N,03924.961,E,1,12,1.0,0.0,M,0.0,M,,*60
$GPGSA,A,3,01,02,03,04,05,06,07,08,09,10,11,12,1.0,1.0,1.0*30
$GPRMC,102354.098,A,5133.585,N,03924.961,E,038.9,159.7,130824,000.0,W*70
$GPGGA,102355.098,5133.575,N,03924.967,E,1,12,1.0,0.0,M,0.0,M,,*68
$GPGSA,A,3,01,02,03,04,05,06,07,08,09,10,11,12,1.0,1.0,1.0*30
$GPRMC,102355.098,A,5133.575,N,03924.967,E,038.9,159.7,130824,000.0,W*78
$GPGGA,102356.098,5133.565,N,03924.973,E,1,12,1.0,0.0,M,0.0,M,,*6F
$GPGSA,A,3,01,02,03,04,05,06,07,08,09,10,11,12,1.0,1.0,1.0*30
$GPRMC,102356.098,A,5133.565,N,03924.973,E,038.9,159.7,130824,000.0,W*7F
$GPGGA,102357.098,5133.555,N,03924.979,E,1,12,1.0,0.0,M,0.0,M,,*67
$GPGSA,A,3,01,02,03,04,05,06,07,08,09,10,11,12,1.0,1.0,1.0*30
$GPRMC,102357.098,A,5133.555,N,03924.979,E,038.9,159.7,130824,000.0,W*77
$GPGGA,102358.098,5133.545,N,03924.985,E,1,12,1.0,0.0,M,0.0,M,,*6A
$GPGSA,A,3,01,02,03,04,05,06,07,08,09,10,11,12,1.0,1.0,1.0*30
$GPRMC,102358.098,A,5133.545,N,03924.985,E,038.9,159.7,130824,000.0,W*7A
$GPGGA,102359.098,5133.535,N,03924.991,E,1,12,1.0,0.0,M,0.0,M,,*69
$GPGSA,A,3,01,02,03,04,05,06,07,08,09,10,11,12,1.0,1.0,1.0*30
$GPRMC,102359.098,A,5133.535,N,03924.991,E,038.9,159.7,130824,000.0,W*79
$GPGGA,102400.098,5133.525,N,03924.997,E,1,12,1.0,0.0,M,0.0,M,,*65
$GPGSA,A,3,01,02,03,04,05,06,07,08,09,10,11,12,1.0,1.0,1.0*30
$GPRMC,102400.098,A,5133.525,N,03924.997,E,038.9,014.7,130824,000.0,W*7D
$GPGGA,102401.098,5133.535,N,03925.001,E,1,12,1.0,0.0,M,0.0,M,,*62
$GPGSA,A,3,01,02,03,04,05,06,07,08,09,10,11,12,1.0,1.0,1.0*30
$GPRMC,102401.098,A,5133.535,N,03925.001,E,038.9,014.7,130824,000.0,W*7A
$GPGGA,102402.098,5133.546,N,03925.006,E,1,12,1.0,0.0,M,0.0,M,,*62
$GPGSA,A,3,01,02,03,04,05,06,07,08,09,10,11,12,1.0,1.0,1.0*30
$GPRMC,102402.098,A,5133.546,N,03925.006,E,038.9,014.7,130824,000.0,W*7A
$GPGGA,102403.098,5133.556,N,03925.010,E,1,12,1.0,0.0,M,0.0,M,,*65
$GPGSA,A,3,01,02,03,04,05,06,07,08,09,10,11,12,1.0,1.0,1.0*30
$GPRMC,102403.098,A,5133.556,N,03925.010,E,038.9,014.7,130824,000.0,W*7D
$GPGGA,102404.098,5133.566,N,03925.014,E,1,12,1.0,0.0,M,0.0,M,,*65
$GPGSA,A,3,01,02,03,04,05,06,07,08,09,10,11,12,1.0,1.0,1.0*30
$GPRMC,102404.098,A,5133.566,N,03925.014,E,038.9,014.7,130824,000.0,W*7D
$GPGGA,102405.098,5133.577,N,03925.019,E,1,12,1.0,0.0,M,0.0,M,,*69
$GPGSA,A,3,01,02,03,04,05,06,07,08,09,10,11,12,1.0,1.0,1.0*30
$GPRMC,102405.098,A,5133.577,N,03925.019,E,038.9,014.7,130824,000.0,W*71
$GPGGA,102406.098,5133.587,N,03925.023,E,1,12,1.0,0.0,M,0.0,M,,*6C
$GPGSA,A,3,01,02,03,04,05,06,07,08,09,10,11,12,1.0,1.0,1.0*30
$GPRMC,102406.098,A,5133.587,N,03925.023,E,038.9,014.7,130824,000.0,W*74
$GPGGA,102407.098,5133.598,N,03925.028,E,1,12,1.0,0.0,M,0.0,M,,*68
$GPGSA,A,3,01,02,03,04,05,06,07,08,09,10,11,12,1.0,1.0,1.0*30
$GPRMC,102407.098,A,5133.598,N,03925.028,E,038.9,286.2,130824,000.0,W*7C
$GPGGA,102408.098,5133.601,N,03925.011,E,1,12,1.0,0.0,M,0.0,M,,*6E
$GPGSA,A,3,01,02,03,04,05,06,07,08,09,10,11,12,1.0,1.0,1.0*30
$GPRMC,102408.098,A,5133.601,N,03925.011,E,038.9,286.2,130824,000.0,W*7A
$GPGGA,102409.098,5133.604,N,03924.994,E,1,12,1.0,0.0,M,0.0,M,,*6F
$GPGSA,A,3,01,02,03,04,05,06,07,08,09,10,11,12,1.0,1.0,1.0*30
$GPRMC,102409.098,A,5133.604,N,03924.994,E,038.9,286.2,130824,000.0,W*7B
$GPGGA,102410.098,5133.607,N,03924.978,E,1,12,1.0,0.0,M,0.0,M,,*66
$GPGSA,A,3,01,02,03,04,05,06,07,08,09,10,11,12,1.0,1.0,1.0*30
$GPRMC,102410.098,A,5133.607,N,03924.978,E,038.9,286.2,130824,000.0,W*72
$GPGGA,102411.098,5133.610,N,03924.961,E,1,12,1.0,0.0,M,0.0,M,,*69
$GPGSA,A,3,01,02,03,04,05,06,07,08,09,10,11,12,1.0,1.0,1.0*30
$GPRMC,102411.098,A,5133.610,N,03924.961,E,038.9,286.2,130824,000.0,W*7D
$GPGGA,102412.098,5133.613,N,03924.944,E,1,12,1.0,0.0,M,0.0,M,,*6E
$GPGSA,A,3,01,02,03,04,05,06,07,08,09,10,11,12,1.0,1.0,1.0*30
$GPRMC,102412.098,A,5133.613,N,03924.944,E,038.9,286.2,130824,000.0,W*7A
$GPGGA,102413.098,5133.616,N,03924.928,E,1,12,1.0,0.0,M,0.0,M,,*60
$GPGSA,A,3,01,02,03,04,05,06,07,08,09,10,11,12,1.0,1.0,1.0*30
$GPRMC,102413.098,A,5133.616,N,03924.928,E,038.9,286.2,130824,000.0,W*74
$GPGGA,102414.098,5133.619,N,03924.911,E,1,12,1.0,0.0,M,0.0,M,,*62
$GPGSA,A,3,01,02,03,04,05,06,07,08,09,10,11,12,1.0,1.0,1.0*30
$GPRMC,102414.098,A,5133.619,N,03924.911,E,038.9,286.2,130824,000.0,W*76
$GPGGA,102415.098,5133.622,N,03924.894,E,1,12,1.0,0.0,M,0.0,M,,*67
$GPGSA,A,3,01,02,03,04,05,06,07,08,09,10,11,12,1.0,1.0,1.0*30
$GPRMC,102415.098,A,5133.622,N,03924.894,E,038.9,286.2,130824,000.0,W*73
$GPGGA,102416.098,5133.625,N,03924.878,E,1,12,1.0,0.0,M,0.0,M,,*61
$GPGSA,A,3,01,02,03,04,05,06,07,08,09,10,11,12,1.0,1.0,1.0*30
$GPRMC,102416.098,A,5133.625,N,03924.878,E,038.9,207.7,130824,000.0,W*79
$GPGGA,102417.098,5133.615,N,03924.870,E,1,12,1.0,0.0,M,0.0,M,,*6B
$GPGSA,A,3,01,02,03,04,05,06,07,08,09,10,11,12,1.0,1.0,1.0*30
$GPRMC,102417.098,A,5133.615,N,03924.870,E,038.9,207.7,130824,000.0,W*73
$GPGGA,102418.098,5133.606,N,03924.861,E,1,12,1.0,0.0,M,0.0,M,,*66
$GPGSA,A,3,01,02,03,04,05,06,07,08,09,10,11,12,1.0,1.0,1.0*30
$GPRMC,102418.098,A,5133.606,N,03924.861,E,038.9,207.7,130824,000.0,W*7E
$GPGGA,102419.098,5133.596,N,03924.853,E,1,12,1.0,0.0,M,0.0,M,,*6C
$GPGSA,A,3,01,02,03,04,05,06,07,08,09,10,11,12,1.0,1.0,1.0*30
$GPRMC,102419.098,A,5133.596,N,03924.853,E,038.9,280.2,130824,000.0,W*7E
$GPGGA,102420.098,5133.598,N,03924.836,E,1,12,1.0,0.0,M,0.0,M,,*6B
$GPGSA,A,3,01,02,03,04,05,06,07,08,09,10,11,12,1.0,1.0,1.0*30
$GPRMC,102420.098,A,5133.598,N,03924.836,E,038.9,280.2,130824,000.0,W*79
$GPGGA,102421.098,5133.600,N,03924.819,E,1,12,1.0,0.0,M,0.0,M,,*65
$GPGSA,A,3,01,02,03,04,05,06,07,08,09,10,11,12,1.0,1.0,1.0*30
$GPRMC,102421.098,A,5133.600,N,03924.819,E,038.9,280.2,130824,000.0,W*77
$GPGGA,102422.098,5133.602,N,03924.802,E,1,12,1.0,0.0,M,0.0,M,,*6E
$GPGSA,A,3,01,02,03,04,05,06,07,08,09,10,11,12,1.0,1.0,1.0*30
$GPRMC,102422.098,A,5133.602,N,03924.802,E,038.9,280.2,130824,000.0,W*7C
$GPGGA,102423.098,5133.604,N,03924.785,E,1,12,1.0,0.0,M,0.0,M,,*69
$GPGSA,A,3,01,02,03,04,05,06,07,08,09,10,11,12,1.0,1.0,1.0*30
$GPRMC,102423.098,A,5133.604,N,03924.785,E,038.9,209.2,130824,000.0,W*7A
$GPGGA,102424.098,5133.594,N,03924.777,E,1,12,1.0,0.0,M,0.0,M,,*69
$GPGSA,A,3,01,02,03,04,05,06,07,08,09,10,11,12,1.0,1.0,1.0*30
$GPRMC,102424.098,A,5133.594,N,03924.777,E,038.9,209.2,130824,000.0,W*7A
$GPGGA,102425.098,5133.585,N,03924.768,E,1,12,1.0,0.0,M,0.0,M,,*66
$GPGSA,A,3,01,02,03,04,05,06,07,08,09,10,11,12,1.0,1.0,1.0*30
$GPRMC,102425.098,A,5133.585,N,03924.768,E,038.9,209.2,130824,000.0,W*75
$GPGGA,102426.098,5133.576,N,03924.760,E,1,12,1.0,0.0,M,0.0,M,,*61
$GPGSA,A,3,01,02,03,04,05,06,07,08,09,10,11,12,1.0,1.0,1.0*30
$GPRMC,102426.098,A,5133.576,N,03924.760,E,038.9,289.2,130824,000.0,W*7A
$GPGGA,102427.098,5133.579,N,03924.743,E,1,12,1.0,0.0,M,0.0,M,,*6E
$GPGSA,A,3,01,02,03,04,05,06,07,08,09,10,11,12,1.0,1.0,1.0*30
$GPRMC,102427.098,A,5133.579,N,03924.743,E,038.9,289.2,130824,000.0,W*75
$GPGGA,102428.098,5133.583,N,03924.727,E,1,12,1.0,0.0,M,0.0,M,,*66
$GPGSA,A,3,01,02,03,04,05,06,07,08,09,10,11,12,1.0,1.0,1.0*30
$GPRMC,102428.098,A,5133.583,N,03924.727,E,038.9,289.2,130824,000.0,W*7D
$GPGGA,102429.098,5133.586,N,03924.710,E,1,12,1.0,0.0,M,0.0,M,,*66
$GPGSA,A,3,01,02,03,04,05,06,07,08,09,10,11,12,1.0,1.0,1.0*30
$GPRMC,102429.098,A,5133.586,N,03924.710,E,038.9,212.1,130824,000.0,W*7C
$GPGGA,102430.098,5133.577,N,03924.701,E,1,12,1.0,0.0,M,0.0,M,,*60
$GPGSA,A,3,01,02,03,04,05,06,07,08,09,10,11,12,1.0,1.0,1.0*30
$GPRMC,102430.098,A,5133.577,N,03924.701,E,038.9,212.1,130824,000.0,W*7A
$GPGGA,102431.098,5133.568,N,03924.692,E,1,12,1.0,0.0,M,0.0,M,,*64
$GPGSA,A,3,01,02,03,04,05,06,07,08,09,10,11,12,1.0,1.0,1.0*30
$GPRMC,102431.098,A,5133.568,N,03924.692,E,038.9,212.1,130824,000.0,W*7E
$GPGGA,102432.098,5133.559,N,03924.683,E,1,12,1.0,0.0,M,0.0,M,,*65
$GPGSA,A,3,01,02,03,04,05,06,07,08,09,10,11,12,1.0,1.0,1.0*30
$GPRMC,102432.098,A,5133.559,N,03924.683,E,038.9,281.4,130824,000.0,W*70
$GPGGA,102433.098,5133.561,N,03924.666,E,1,12,1.0,0.0,M,0.0,M,,*64
$GPGSA,A,3,01,02,03,04,05,06,07,08,09,10,11,12,1.0,1.0,1.0*30
$GPRMC,102433.098,A,5133.561,N,03924.666,E,038.9,281.4,130824,000.0,W*71
$GPGGA,102434.098,5133.563,N,03924.649,E,1,12,1.0,0.0,M,0.0,M,,*6C
$GPGSA,A,3,01,02,03,04,05,06,07,08,09,10,11,12,1.0,1.0,1.0*30
$GPRMC,102434.098,A,5133.563,N,03924.649,E,038.9,281.4,130824,000.0,W*79
$GPGGA,102435.098,5133.565,N,03924.632,E,1,12,1.0,0.0,M,0.0,M,,*67
$GPGSA,A,3,01,02,03,04,05,06,07,08,09,10,11,12,1.0,1.0,1.0*30
$GPRMC,102435.098,A,5133.565,N,03924.632,E,038.9,214.1,130824,000.0,W*7B
$GPGGA,102436.098,5133.556,N,03924.622,E,1,12,1.0,0.0,M,0.0,M,,*65
$GPGSA,A,3,01,02,03,04,05,06,07,08,09,10,11,12,1.0,1.0,1.0*30
$GPRMC,102436.098,A,5133.556,N,03924.622,E,038.9,214.1,130824,000.0,W*79
$GPGGA,102437.098,5133.547,N,03924.612,E,1,12,1.0,0.0,M,0.0,M,,*67
$GPGSA,A,3,01,02,03,04,05,06,07,08,09,10,11,12,1.0,1.0,1.0*30
$GPRMC,102437.098,A,5133.547,N,03924.612,E,038.9,214.1,130824,000.0,W*7B
$GPGGA,102438.098,5133.538,N,03924.603,E,1,12,1.0,0.0,M,0.0,M,,*60
$GPGSA,A,3,01,02,03,04,05,06,07,08,09,10,11,12,1.0,1.0,1.0*30
$GPRMC,102438.098,A,5133.538,N,03924.603,E,038.9,298.6,130824,000.0,W*7F
$GPGGA,102439.098,5133.543,N,03924.587,E,1,12,1.0,0.0,M,0.0,M,,*62
$GPGSA,A,3,01,02,03,04,05,06,07,08,09,10,11,12,1.0,1.0,1.0*30
$GPRMC,102439.098,A,5133.543,N,03924.587,E,038.9,298.6,130824,000.0,W*7D
$GPGGA,102440.098,5133.549,N,03924.572,E,1,12,1.0,0.0,M,0.0,M,,*6C
$GPGSA,A,3,01,02,03,04,05,06,07,08,09,10,11,12,1.0,1.0,1.0*30
$GPRMC,102440.098,A,5133.549,N,03924.572,E,038.9,298.6,130824,000.0,W*73
$GPGGA,102441.098,5133.554,N,03924.557,E,1,12,1.0,0.0,M,0.0,M,,*66
$GPGSA,A,3,01,02,03,04,05,06,07,08,09,10,11,12,1.0,1.0,1.0*30
$GPRMC,102441.098,A,5133.554,N,03924.557,E,038.9,211.3,130824,000.0,W*7D
$GPGGA,102442.098,5133.545,N,03924.548,E,1,12,1.0,0.0,M,0.0,M,,*6B
$GPGSA,A,3,01,02,03,04,05,06,07,08,09,10,11,12,1.0,1.0,1.0*30
$GPRMC,102442.098,A,5133.545,N,03924.548,E,038.9,211.3,130824,000.0,W*70
$GPGGA,102443.098,5133.535,N,03924.539,E,1,12,1.0,0.0,M,0.0,M,,*6B
$GPGSA,A,3,01,02,03,04,05,06,07,08,09,10,11,12,1.0,1.0,1.0*30
$GPRMC,102443.098,A,5133.535,N,03924.539,E,038.9,211.3,130824,000.0,W*70
$GPGGA,102444.098,5133.526,N,03924.530,E,1,12,1.0,0.0,M,0.0,M,,*67
$GPGSA,A,3,01,02,03,04,05,06,07,08,09,10,11,12,1.0,1.0,1.0*30
$GPRMC,102444.098,A,5133.526,N,03924.530,E,038.9,284.6,130824,000.0,W*75
$GPGGA,102445.098,5133.529,N,03924.513,E,1,12,1.0,0.0,M,0.0,M,,*68
$GPGSA,A,3,01,02,03,04,05,06,07,08,09,10,11,12,1.0,1.0,1.0*30
$GPRMC,102445.098,A,5133.529,N,03924.513,E,038.9,284.6,130824,000.0,W*7A
$GPGGA,102446.098,5133.532,N,03924.496,E,1,12,1.0,0.0,M,0.0,M,,*6D
$GPGSA,A,3,01,02,03,04,05,06,07,08,09,10,11,12,1.0,1.0,1.0*30
$GPRMC,102446.098,A,5133.532,N,03924.496,E,038.9,284.6,130824,000.0,W*7F
$GPGGA,102447.098,5133.534,N,03924.479,E,1,12,1.0,0.0,M,0.0,M,,*6B
$GPGSA,A,3,01,02,03,04,05,06,07,08,09,10,11,12,1.0,1.0,1.0*30
$GPRMC,102447.098,A,5133.534,N,03924.479,E,038.9,192.5,130824,000.0,W*7E
$GPGGA,102448.098,5133.524,N,03924.476,E,1,12,1.0,0.0,M,0.0,M,,*6A
$GPGSA,A,3,01,02,03,04,05,06,07,08,09,10,11,12,1.0,1.0,1.0*30
$GPRMC,102448.098,A,5133.524,N,03924.476,E,038.9,192.5,130824,000.0,W*7F
$GPGGA,102449.098,5133.513,N,03924.472,E,1,12,1.0,0.0,M,0.0,M,,*6B
$GPGSA,A,3,01,02,03,04,05,06,07,08,09,10,11,12,1.0,1.0,1.0*30
$GPRMC,102449.098,A,5133.513,N,03924.472,E,038.9,196.0,130824,000.0,W*7F
$GPGGA,102450.098,5133.503,N,03924.467,E,1,12,1.0,0.0,M,0.0,M,,*66
$GPGSA,A,3,01,02,03,04,05,06,07,08,09,10,11,12,1.0,1.0,1.0*30
$GPRMC,102450.098,A,5133.503,N,03924.467,E,038.9,196.0,130824,000.0,W*72
$GPGGA,102451.098,5133.492,N,03924.462,E,1,12,1.0,0.0,M,0.0,M,,*6B
$GPGSA,A,3,01,02,03,04,05,06,07,08,09,10,11,12,1.0,1.0,1.0*30
$GPRMC,102451.098,A,5133.492,N,03924.462,E,038.9,196.0,130824,000.0,W*7F
$GPGGA,102452.098,5133.482,N,03924.458,E,1,12,1.0,0.0,M,0.0,M,,*60
$GPGSA,A,3,01,02,03,04,05,06,07,08,09,10,11,12,1.0,1.0,1.0*30
$GPRMC,102452.098,A,5133.482,N,03924.458,E,038.9,196.0,130824,000.0,W*74
$GPGGA,102453.098,5133.472,N,03924.453,E,1,12,1.0,0.0,M,0.0,M,,*65
$GPGSA,A,3,01,02,03,04,05,06,07,08,09,10,11,12,1.0,1.0,1.0*30
$GPRMC,102453.098,A,5133.472,N,03924.453,E,038.9,196.0,130824,000.0,W*71
$GPGGA,102454.098,5133.461,N,03924.448,E,1,12,1.0,0.0,M,0.0,M,,*6A
$GPGSA,A,3,01,02,03,04,05,06,07,08,09,10,11,12,1.0,1.0,1.0*30
$GPRMC,102454.098,A,5133.461,N,03924.448,E,038.9,104.6,130824,000.0,W*73
$GPGGA,102455.098,5133.459,N,03924.465,E,1,12,1.0,0.0,M,0.0,M,,*6F
$GPGSA,A,3,01,02,03,04,05,06,07,08,09,10,11,12,1.0,1.0,1.0*30
$GPRMC,102455.098,A,5133.459,N,03924.465,E,038.9,104.6,130824,000.0,W*76
$GPGGA,102456.098,5133.456,N,03924.482,E,1,12,1.0,0.0,M,0.0,M,,*6A
$GPGSA,A,3,01,02,03,04,05,06,07,08,09,10,11,12,1.0,1.0,1.0*30
$GPRMC,102456.098,A,5133.456,N,03924.482,E,038.9,104.6,130824,000.0,W*73
$GPGGA,102457.098,5133.453,N,03924.498,E,1,12,1.0,0.0,M,0.0,M,,*65
$GPGSA,A,3,01,02,03,04,05,06,07,08,09,10,11,12,1.0,1.0,1.0*30
$GPRMC,102457.098,A,5133.453,N,03924.498,E,038.9,104.6,130824,000.0,W*7C
$GPGGA,102458.098,5133.450,N,03924.515,E,1,12,1.0,0.0,M,0.0,M,,*6D
$GPGSA,A,3,01,02,03,04,05,06,07,08,09,10,11,12,1.0,1.0,1.0*30
$GPRMC,102458.098,A,5133.450,N,03924.515,E,038.9,104.6,130824,000.0,W*74
